City,Cloudiness,Country,Date,Humidity,Latitude,Longitude,Max Temp,Wind Speed
Alice Springs,0,AU,1587234135,55,-23.7,133.88,60.8,4.7
Rikitea,1,PF,1587234135,70,-23.12,-134.97,76.78,4.68
Haines Junction,1,CA,1587234136,50,60.75,-137.51,42.53,1.5
Ribeira Grande,75,PT,1587234136,88,38.52,-28.7,64.4,9.17
Hobart,40,AU,1587234136,87,-42.88,147.33,45.0,1.12
Pacific Grove,90,US,1587234111,62,36.62,-121.92,59.0,7.99
Qaqortoq,40,GL,1587234136,43,60.72,-46.03,33.8,5.82
Tiksi,92,RU,1587233851,87,71.69,128.87,5.04,4.7
Hong Kong,96,HK,1587233979,83,22.29,114.16,75.0,5.7
Poronaysk,55,RU,1587234136,97,49.22,143.12,31.5,4.79
Touros,40,BR,1587234136,62,-5.2,-35.46,87.8,11.41
Ushuaia,75,AR,1587234136,37,-54.8,-68.3,51.8,12.75
Kapaa,20,US,1587234136,73,22.08,-159.32,75.2,12.75
East London,0,ZA,1587234137,64,-33.02,27.91,71.94,17.94
Bredasdorp,0,ZA,1587233986,87,-34.53,20.04,57.2,4.7
Nuuk,90,GL,1587234125,68,64.18,-51.72,28.4,16.11
Bluff,100,NZ,1587234137,93,-46.6,168.33,43.0,4.0
Karaman Province,94,TR,1587234137,41,37.08,33.25,56.17,5.7
Vardø,75,NO,1587234137,86,70.37,31.11,33.8,11.41
New Norfolk,70,AU,1587233955,86,-42.78,147.06,43.0,3.62
Cayenne,75,GF,1587234137,70,4.93,-52.33,86.0,8.05
Lagoa,93,PT,1587233906,85,39.05,-27.98,63.09,25.57
Saint-Philippe,20,RE,1587234137,78,-21.36,55.77,77.0,17.22
Mar del Plata,0,AR,1587233897,53,-38.0,-57.56,73.99,20.8
Ledyard Center,90,US,1587234137,86,41.44,-72.01,41.0,17.22
Punta Arenas,57,CL,1587234137,43,-53.15,-70.92,55.4,17.22
Nísia Floresta,40,BR,1587234137,59,-6.09,-35.21,89.6,9.17
Lebu,91,CL,1587234138,68,-37.62,-73.65,64.29,6.55
Sur,2,OM,1587233882,76,22.57,59.53,79.97,2.37
Rocha,0,UY,1587233889,59,-34.48,-54.33,72.12,7.54
Albany,98,US,1587234138,71,42.6,-73.97,43.0,1.99
Chokurdakh,56,RU,1587234138,86,70.63,147.92,-12.08,7.52
Nikolskoye,75,RU,1587233982,94,59.7,30.79,37.4,13.42
Atuona,63,PF,1587234138,79,-9.8,-139.03,82.26,14.2
Juventino Rosas,75,MX,1587234138,30,20.65,-101.0,84.0,14.99
Mataura,100,NZ,1587234138,93,-46.19,168.86,43.0,4.0
George Town,40,MY,1587234138,88,5.41,100.34,82.4,4.7
Jamestown,75,US,1587234138,55,42.1,-79.24,43.0,12.75
Baykit,46,RU,1587234138,92,61.67,96.37,20.35,2.13
Butaritari,98,KI,1587234139,78,3.07,172.79,82.04,14.43
Arraial do Cabo,40,BR,1587234139,73,-22.97,-42.03,77.0,10.29
Kavieng,99,PG,1587234139,76,-2.57,150.8,82.17,0.6
Tournon-sur-Rhône,94,FR,1587234139,63,45.07,4.83,66.99,5.82
Cochabamba,20,BO,1587234139,35,-17.39,-66.16,69.8,2.24
Casablanca,75,MA,1587234139,72,33.59,-7.62,68.0,17.22
Talcahuano,75,CL,1587234139,68,-36.72,-73.12,69.8,3.36
Yellowknife,75,CA,1587234137,79,62.46,-114.35,24.01,9.17
Teguise,20,ES,1587234139,64,29.06,-13.56,69.8,13.87
Rundu,95,NA,1587234139,51,-17.93,19.77,80.6,3.36
Cariamanga,75,EC,1587234139,42,-4.33,-79.55,82.4,18.34
Puerto Ayora,40,EC,1587233864,74,-0.74,-90.35,84.2,13.87
Camacha,40,PT,1587233893,68,33.08,-16.33,66.2,13.87
Qaanaaq,26,GL,1587234140,82,77.48,-69.36,19.42,11.03
Longyearbyen,40,SJ,1587234140,95,78.22,15.64,32.0,6.93
Vaini,75,TO,1587233854,83,-21.2,-175.2,77.0,9.17
Jalu,0,LY,1587233864,23,29.03,21.55,73.94,8.63
Bereda,64,ES,1587234140,81,43.27,-7.54,59.0,8.01
Chui,32,UY,1587234140,70,-33.7,-53.46,70.14,6.78
La Ronge,75,CA,1587234140,46,55.1,-105.28,28.4,12.75
Port Alfred,0,ZA,1587234140,94,-33.59,26.89,66.99,3.0
Kamaishi,100,JP,1587234140,87,39.27,141.88,47.57,29.64
Talnakh,100,RU,1587234140,74,69.49,88.4,37.4,33.55
College,90,US,1587234140,100,64.86,-147.8,39.2,2.98
Yar-Sale,100,RU,1587234141,98,66.83,70.83,34.72,6.22
Neuquén,83,AR,1587234141,45,-38.95,-68.06,82.4,14.58
Lüderitz,11,NA,1587234141,87,-26.65,15.16,60.8,6.93
Salaga,54,GH,1587234141,46,8.55,-0.52,93.07,9.84
San Patricio,20,MX,1587234141,78,19.22,-104.7,82.4,11.41
Jasaan,0,PH,1587234141,67,8.65,124.78,75.96,4.32
‘Ewa Beach,40,US,1587233970,57,21.32,-158.01,77.0,9.17
Guerrero Negro,2,MX,1587233919,56,27.98,-114.06,65.25,16.64
Waihi Beach,40,NZ,1587234141,80,-37.4,175.93,64.0,10.38
Hasaki,75,JP,1587234141,87,35.73,140.83,52.0,4.7
The Valley,40,AI,1587233885,62,18.22,-63.06,86.0,10.29
Cape Town,5,ZA,1587234023,52,-33.93,18.42,69.01,3.36
Saint Paul Harbor,40,US,1587234141,81,57.79,-152.41,44.6,4.7
Ajdabiya,0,LY,1587234063,50,30.76,20.23,66.36,16.6
Hamilton,75,US,1587234131,46,39.18,-84.53,53.01,8.05
Norman Wells,90,CA,1587233931,93,65.28,-126.83,37.4,11.41
Nome,90,US,1587234142,100,64.5,-165.41,33.8,9.17
Trelew,100,AR,1587234142,59,-43.25,-65.31,69.53,14.94
Hermanus,6,ZA,1587234142,54,-34.42,19.23,67.57,2.06
Sisimiut,100,GL,1587234142,91,66.94,-53.67,25.56,22.46
Leningradskiy,51,RU,1587234142,89,69.38,178.42,-3.64,7.58
Kokopo,99,PG,1587234142,79,-4.35,152.26,78.62,3.18
Formosa,0,AR,1587234142,37,-26.18,-58.18,84.2,4.7
Hilo,1,US,1587234142,64,19.73,-155.09,75.2,5.66
Vidim,31,RU,1587234142,88,56.41,103.11,21.67,7.29
Saskylakh,0,RU,1587233867,81,71.92,114.08,8.49,5.06
Pudozh,89,RU,1587234143,98,61.81,36.53,30.27,1.88
Busselton,100,AU,1587234143,67,-33.65,115.33,63.0,22.86
Carnarvon,75,AU,1587233859,88,-24.87,113.63,75.2,14.99
Srednekolymsk,47,RU,1587234143,89,67.45,153.68,-12.33,7.87
Nangwa,100,TZ,1587234143,59,-4.47,35.45,57.33,4.14
Mirny,98,RU,1587234143,55,62.54,113.96,10.4,13.42
Upernavik,100,GL,1587234143,89,72.79,-56.15,25.68,29.04
Dikson,100,RU,1587234143,91,73.51,80.55,35.91,18.05
Codrington,47,AU,1587234143,84,-38.27,141.97,51.66,7.92
Morant Bay,20,JM,1587234143,66,17.88,-76.41,86.0,20.8
Khatanga,0,RU,1587234143,93,71.97,102.5,10.49,4.81
Thinadhoo,100,MV,1587234143,73,0.53,72.93,84.45,12.55
Along,97,IN,1587234143,70,28.17,94.77,66.94,1.86
Makakilo City,40,US,1587234144,77,21.35,-158.09,77.0,7.16
Alofi,37,NU,1587234144,88,-19.06,-169.92,77.0,6.93
Kaitangata,100,NZ,1587234144,88,-46.28,169.85,48.0,7.87
Pinsk,94,BY,1587234144,65,52.12,26.1,40.28,5.21
Kisanga,100,TZ,1587234144,86,-7.44,37.7,75.02,1.72
Barrow,1,US,1587233862,91,71.29,-156.79,-7.6,9.17
Sitka,40,US,1587234144,93,57.05,-135.33,41.0,4.7
Misratah,54,LY,1587234144,70,32.38,15.09,65.37,12.88
Esperance,75,AU,1587234144,100,-33.87,121.9,59.0,16.11
Santa Vitória do Palmar,34,BR,1587234144,70,-33.52,-53.37,70.45,6.87
Vostok,27,RU,1587234145,75,46.49,135.88,34.97,3.09
São Filipe,14,CV,1587234145,73,14.9,-24.5,71.49,23.38
Udachny,1,RU,1587234145,43,66.42,112.4,10.4,4.47
Tuktoyaktuk,40,CA,1587234145,77,69.45,-133.04,6.8,6.93
Xuchang,100,CN,1587234145,93,34.02,113.82,50.0,4.47
Palora,90,EC,1587234145,88,-1.7,-77.93,68.0,1.1
Clyde River,75,CA,1587234145,85,70.47,-68.59,15.8,4.7
Beringovskiy,100,RU,1587234145,96,63.05,179.32,18.05,18.81
Makassar,20,ID,1587234145,100,-5.14,119.42,77.0,1.12
Salinópolis,67,BR,1587234145,72,-0.61,-47.36,82.99,3.94
Severo-Kuril'sk,0,RU,1587234145,88,50.68,156.12,32.68,9.04
Mount Isa,11,AU,1587234146,28,-20.73,139.5,73.4,12.75
Ulverstone,29,AU,1587234146,53,-41.15,146.17,55.99,7.0
Puerto Madryn,100,AR,1587234146,44,-42.77,-65.04,76.84,6.89
Dingle,0,PH,1587234146,79,11.0,122.67,80.22,8.52
Cherskiy,39,RU,1587234146,87,68.75,161.3,-4.95,6.04
Malindi,20,KE,1587234146,78,-3.22,40.12,80.6,8.05
Buala,97,SB,1587234146,80,-8.14,159.59,80.28,4.65
Angoche,0,MZ,1587234146,82,-16.23,39.91,78.8,8.16
Poço Verde,71,BR,1587234146,60,-10.71,-38.18,84.65,9.6
Murgab,90,TM,1587234146,59,37.5,61.97,66.2,5.41
Tairua,51,NZ,1587234146,80,-37.02,175.85,64.0,15.14
Tasiilaq,90,GL,1587234146,91,65.61,-37.64,32.0,17.22
Nālūt,28,LY,1587233869,19,30.33,10.85,84.65,12.44
Nioro,61,GM,1587234147,19,13.35,-15.75,94.1,14.52
Sheltozero,100,RU,1587234147,96,61.37,35.37,33.57,7.4
Castro,36,BR,1587234147,38,-24.79,-50.01,71.24,4.59
Bone,11,DE,1587234147,35,51.97,12.14,61.0,1.99
Lompoc,90,US,1587234147,67,34.64,-120.46,60.01,8.05
Batagay-Alyta,0,RU,1587234147,67,67.8,130.41,-7.1,4.45
Paita,54,PE,1587234147,48,-5.09,-81.11,87.8,11.41
Nchelenge,85,ZM,1587234147,60,-9.35,28.73,73.29,6.55
Auxerre,93,FR,1587234147,75,47.8,3.57,68.0,2.21
Fengxian,100,CN,1587234147,93,34.7,116.59,52.2,7.2
Heihe,100,CN,1587234147,44,50.24,127.49,37.4,2.24
Bambous Virieux,40,MU,1587234148,74,-20.34,57.76,79.0,16.11
Port Lincoln,51,AU,1587234081,74,-34.73,135.87,58.5,5.14
Kamenka,25,RU,1587234148,78,51.32,42.77,37.0,1.99
Ancud,75,CL,1587234148,82,-41.87,-73.82,60.8,14.99
Arkhara,68,RU,1587234148,48,49.42,130.08,48.06,10.13
El Rosario,39,MX,1587233881,75,24.26,-107.18,80.01,8.01
Avarua,13,CK,1587234148,78,-21.21,-159.78,78.8,3.36
Fort Nelson,40,CA,1587234148,45,58.81,-122.7,48.2,8.05
Kologriv,100,RU,1587234148,89,58.83,44.32,32.99,3.65
Marabu,75,MY,1587234148,100,4.41,114.01,77.0,2.24
Narsaq,40,GL,1587234148,43,60.92,-46.05,33.8,5.82
Vila Velha,20,BR,1587233913,65,-20.33,-40.29,79.0,13.87
Yumen,66,CN,1587234149,22,40.28,97.2,55.0,8.34
Bathsheba,20,BB,1587234149,58,13.22,-59.52,86.0,19.46
Meulaboh,89,ID,1587234149,82,4.14,96.13,79.48,3.87
Canavieiras,33,BR,1587234149,89,-15.68,-38.95,78.55,8.14
Jyvaskyla,75,FI,1587234022,64,62.24,25.72,37.4,14.99
Calvinia,19,ZA,1587234149,15,-31.47,19.78,71.82,5.3
Dombarovskiy,76,RU,1587234065,76,50.76,59.54,48.4,7.45
Tura,89,IN,1587234149,74,25.52,90.22,68.4,9.28
Sangar,2,RU,1587234149,82,63.92,127.47,1.85,2.62
Marabba,13,SD,1587234149,11,12.35,32.18,88.68,9.71
Isiro,94,CD,1587234149,75,2.77,27.62,69.21,2.06
Lālmohan,91,BD,1587234150,70,22.34,90.74,79.99,15.01
Brae,0,GB,1587234150,70,60.4,-1.35,46.4,11.41
Ostrovnoy,100,RU,1587234150,95,68.05,39.51,32.45,12.5
Mataram,20,ID,1587234150,100,-8.58,116.12,77.0,4.32
Labuhan,70,ID,1587234150,82,-6.88,112.21,79.86,1.1
Fortuna,90,US,1587233986,93,40.6,-124.16,55.99,3.36
Alvarães,40,BR,1587234150,88,-3.22,-64.8,82.4,4.7
Masvingo,6,ZW,1587234150,64,-20.06,30.83,65.05,8.03
Mastung,74,PK,1587234150,24,29.8,66.84,60.22,5.7
Kargopol',95,RU,1587234150,97,61.51,38.95,28.99,2.75
Maningrida,54,AU,1587234151,85,-12.07,134.27,76.89,5.3
Ilām,18,NP,1587234151,50,26.92,87.92,61.81,1.88
Ouadda,64,CF,1587234151,14,8.08,22.4,80.38,0.76
Quatre Cocos,40,MU,1587234151,74,-20.21,57.76,79.0,16.11
Piancó,52,BR,1587234151,62,-7.2,-37.93,84.97,2.24
Petatlán,5,MX,1587234056,55,17.52,-101.27,87.8,12.75
Boa Vista,75,BR,1587234151,36,2.82,-60.67,95.0,8.05
Līvāni,34,LV,1587234151,74,56.35,26.18,37.31,7.92
Nelson Bay,20,AU,1587234151,93,-32.72,152.15,54.0,2.66
Viedma,94,AR,1587234151,28,-40.81,-63.0,83.86,21.63
Kruisfontein,0,ZA,1587234151,52,-34.0,24.73,66.58,8.77
Isangel,79,VU,1587234152,82,-19.55,169.27,78.85,10.58
Van Buren,1,US,1587234152,38,35.44,-94.35,64.0,10.29
Podor,77,MR,1587234152,24,16.65,-14.96,91.4,4.7
Port Elizabeth,3,ZA,1587234152,94,-33.92,25.57,68.0,9.17
Rakke,96,EE,1587234152,78,58.98,26.25,37.62,6.91
Koson,81,UZ,1587234152,77,39.04,65.58,59.0,2.24
Araouane,47,ML,1587234152,8,18.9,-3.53,102.04,6.82
Thurso,0,GB,1587234152,75,58.59,-3.53,46.4,14.99
Nyuksenitsa,99,RU,1587234152,96,60.41,44.24,29.89,2.46
Brownsville,75,US,1587234152,55,25.9,-97.5,89.6,16.11
Praia,40,CV,1587234152,54,14.92,-23.51,78.8,20.8
Te Anau,80,NZ,1587234152,72,-45.42,167.72,44.96,5.73
Pryazha,100,RU,1587234152,100,61.69,33.62,33.8,4.47
Khovd,53,MN,1587234153,38,48.01,91.64,36.3,2.1
Paamiut,100,GL,1587234153,91,61.99,-49.67,29.59,22.75
Chifeng,100,CN,1587234153,35,42.27,118.96,53.06,9.46
Japura,96,ID,1587234153,92,-0.32,102.35,75.0,1.1
Laas,40,IT,1587234153,51,46.62,10.7,59.0,2.24
Airai,63,TL,1587234153,56,-8.93,125.41,60.13,2.48
Lac du Bonnet,99,CA,1587234153,86,50.25,-96.06,37.0,5.99
Nandu,43,CN,1587234153,89,22.85,110.82,71.82,3.53
Marawi,7,PH,1587233855,71,8.0,124.29,67.08,2.75
Karasjok,54,NO,1587234153,74,69.47,25.51,35.6,23.04
Tupik,100,RU,1587234154,89,54.43,119.93,18.14,15.19
Dunedin,95,NZ,1587233930,69,-45.87,170.5,48.99,6.11
San Policarpo,25,PH,1587233863,79,12.18,125.51,81.7,14.7
Ilulissat,75,GL,1587233979,79,69.22,-51.1,24.8,3.36
Mopipi,15,BW,1587234154,22,-21.18,24.88,79.52,9.33
Mareeba,90,AU,1587234154,94,-17.0,145.43,77.0,1.25
Lorengau,64,PG,1587234154,72,-2.02,147.27,82.51,1.45
Okhotsk,54,RU,1587234154,85,59.38,143.3,8.15,12.57
Cap-aux-Meules,5,CA,1587234154,40,47.38,-61.86,37.4,8.05
Hadejia,88,NG,1587234154,9,12.45,10.04,84.09,4.54
Abomsa,100,ET,1587234154,49,9.98,39.98,72.84,3.24
Pemangkat,79,ID,1587234154,89,1.17,108.97,76.1,6.85
Saint-Joseph,20,RE,1587233960,78,-21.37,55.62,77.0,17.22
Biskamzha,0,RU,1587234155,67,53.45,89.53,33.64,7.05
Hambantota,88,LK,1587233879,77,6.12,81.12,83.25,6.55
Lengshuijiang,99,CN,1587234155,85,27.69,111.43,59.61,2.42
Rio Rancho,20,US,1587234155,18,35.23,-106.66,66.0,11.41
Talara,19,PE,1587234155,48,-4.58,-81.27,87.8,11.41
Pisco,3,PE,1587234155,64,-13.7,-76.22,75.99,10.29
Aklavik,75,CA,1587234123,79,68.22,-135.01,23.0,11.41
Ocampo,63,MX,1587234155,14,21.65,-101.5,76.5,4.0
Zyryanka,100,RU,1587234155,92,65.75,150.85,-0.72,19.33
Grobiņa,7,LV,1587234155,69,56.54,21.17,39.2,5.82
Hvolsvollur,90,IS,1587234155,93,63.75,-20.22,44.6,14.99
Alekseyevka,63,RU,1587234155,65,50.63,38.69,40.84,6.96
Mossamedes,69,AO,1587234156,70,-15.2,12.15,74.34,5.64
Collie,100,AU,1587234156,67,-33.37,116.15,63.0,10.09
Bengkulu,100,ID,1587234156,83,-3.8,102.27,77.99,3.4
Traralgon,90,AU,1587234156,94,-38.18,146.53,53.01,2.77
Parrita,20,CR,1587234156,44,9.52,-84.32,86.0,11.41
La Rioja,90,ES,1587234156,87,42.25,-2.5,59.0,3.36
Constitución,93,CL,1587234156,74,-35.33,-72.42,68.79,9.37
Mayumba,27,GA,1587234156,84,-3.43,10.66,80.28,7.02
Fethiye,4,TR,1587234156,93,36.62,29.12,59.0,5.82
Wanning,49,CN,1587234156,91,18.8,110.4,76.26,8.3
Matamoros,75,MX,1587234156,22,25.53,-103.25,88.0,5.82
Zyryanovsk,0,KZ,1587234156,55,49.74,84.27,40.77,3.78
Comodoro Rivadavia,75,AR,1587234157,29,-45.87,-67.5,75.2,20.8
Saint George,1,US,1587233898,39,37.1,-113.58,66.99,5.82
Sacama,75,EC,1587234157,42,-3.9,-79.27,82.4,18.34
Tuskegee,56,US,1587234157,66,32.42,-85.69,77.0,5.99
Olinda,40,BR,1587234157,74,-8.01,-34.86,84.2,6.93
Shingū,1,JP,1587234157,69,33.73,135.98,51.78,12.64
Petropavlovsk-Kamchatskiy,0,RU,1587234157,88,53.05,158.65,32.0,8.95
Areia Branca,40,BR,1587234157,59,-4.96,-37.14,93.2,11.41
Bethel,90,US,1587234157,80,41.37,-73.41,39.99,9.17
Camalú,13,MX,1587234157,48,30.85,-116.07,63.0,8.99
Ukiah,90,US,1587234157,71,39.15,-123.21,55.0,8.05
Humaitá,79,BR,1587234158,81,-7.51,-63.02,84.15,4.63
Pimentel,61,PE,1587234158,58,-6.84,-79.93,84.2,10.29
Myingyan,47,MM,1587234158,35,21.47,95.38,89.33,4.99
Kingaroy,75,AU,1587234158,93,-26.53,151.83,55.4,1.66
Saurimo,98,AO,1587234158,70,-9.66,20.39,65.66,2.71
el Prat de Llobregat,75,ES,1587234158,93,41.33,2.09,62.01,9.17
Montluçon,99,FR,1587234158,86,46.33,2.6,61.0,3.4
Kashgar,100,CN,1587233978,58,39.45,75.98,57.2,6.71
Palmas Bellas,20,PA,1587234158,62,9.23,-80.09,91.0,16.11
Gayéri,55,BF,1587234158,15,12.65,0.49,98.08,3.33
Naze,90,JP,1587234158,82,28.37,129.48,64.4,4.7
Hithadhoo,99,MV,1587233987,74,-0.6,73.08,84.16,12.82
Denpasar,20,ID,1587234159,100,-8.65,115.22,80.6,1.12
Saldanha,21,ZA,1587234159,33,-33.01,17.94,73.4,8.05
Solnechnyy,45,RU,1587234159,90,50.72,136.63,29.23,4.7
Ratnagiri,25,IN,1587233909,82,16.98,73.3,80.6,3.0
Amoy,90,CN,1587234007,94,24.48,118.08,71.6,6.71
City of San Pedro,75,PH,1587234159,74,14.35,121.02,84.2,6.93
Porgera,94,PG,1587234159,46,-5.47,143.2,37.53,0.89
Nouadhibou,0,MR,1587233914,68,20.93,-17.03,71.6,18.34
Bambanglipuro,98,ID,1587234159,81,-7.95,110.28,78.64,5.41
João Pinheiro,98,BR,1587234087,67,-17.74,-46.17,76.01,3.62
Korla,99,CN,1587234159,34,41.76,86.15,61.47,4.54
Gouré,99,NE,1587234160,5,13.98,10.27,96.01,1.01
Sobolevo,99,RU,1587234160,75,54.43,31.9,37.35,6.29
Baculin,48,PH,1587234160,77,7.45,126.58,78.51,6.02
Livny,93,RU,1587234160,67,52.43,37.61,39.88,8.12
Manakara,23,MG,1587234160,88,-22.13,48.02,74.55,7.61
Pustoshka,95,RU,1587234160,80,56.34,29.37,36.59,4.76
Erenhot,100,CN,1587233933,46,43.65,111.98,49.46,13.69
Bilibino,13,RU,1587234160,81,68.05,166.44,-8.21,5.03
Bandarbeyla,82,SO,1587234160,69,9.49,50.81,81.97,9.86
Skegness,100,GB,1587234160,69,53.14,0.34,52.0,4.0
Ambilobe,99,MG,1587234160,77,-13.2,49.05,75.83,6.6
Geraldton,75,AU,1587234161,88,-28.77,114.6,66.2,6.93
Tuatapere,94,NZ,1587234161,93,-46.13,167.68,43.0,4.0
Moundou,38,TD,1587234161,13,8.57,16.08,94.89,3.33
Mackenzie,1,CA,1587234161,42,55.3,-123.17,44.6,2.24
Praxédis Guerrero,5,MX,1587234161,12,31.37,-106.02,77.0,4.7
Havøysund,95,NO,1587234161,100,71.0,24.66,35.6,12.75
Keïta,15,NE,1587234161,5,14.76,5.77,102.2,4.7
Dandong,76,CN,1587234161,54,40.13,124.39,54.34,3.31
Dutse,91,NG,1587234161,10,11.76,9.34,80.58,4.27
Yangi Marg`ilon,6,UZ,1587233884,41,40.43,71.72,60.8,6.93
Vestmannaeyjar,90,IS,1587233878,93,63.44,-20.27,44.6,14.99
Dakar,32,SN,1587234162,73,14.69,-17.44,73.4,18.34
Sinnamary,93,GF,1587234162,78,5.38,-52.95,82.44,10.33
Amapá,100,BR,1587234162,83,1.0,-52.0,77.63,1.39
Taicheng,100,CN,1587234162,50,38.73,113.23,45.05,1.63
Mahébourg,40,MU,1587234162,74,-20.41,57.7,79.0,16.11
Thompson,75,CA,1587234162,56,55.74,-97.86,12.2,13.87
Santa Maria,20,BR,1587234162,53,-29.68,-53.81,77.0,13.87
Hualmay,52,PE,1587234162,61,-11.1,-77.61,77.65,9.24
Gijang,75,KR,1587234162,81,35.24,129.21,51.8,3.36
Flinders,92,AU,1587234162,82,-34.58,150.86,54.0,6.49
St. George's,20,GD,1587234162,66,12.06,-61.75,86.0,19.46
Inta,100,RU,1587233872,94,66.03,60.17,31.89,3.71
Ponta do Sol,6,PT,1587234163,52,32.67,-17.1,64.99,1.01
Bintulu,75,MY,1587234011,100,3.17,113.03,73.4,2.24
Ola,100,RU,1587234134,92,59.58,151.28,8.8,14.76
Shubarkuduk,73,KZ,1587234163,76,49.14,56.49,49.06,4.41
Pita,47,GN,1587234163,23,10.83,-12.58,96.12,6.26
Nanortalik,27,GL,1587234163,88,60.14,-45.24,30.18,3.69
Caucayá,99,CO,1587234163,70,-0.19,-74.78,76.95,2.24
Skreia,0,NO,1587234163,50,60.65,10.93,48.0,3.0
Castelo Branco,100,PT,1587234163,51,39.82,-7.49,69.01,3.13
Berdigestyakh,17,RU,1587233932,91,62.1,126.7,2.28,2.93
Hervey Bay,40,AU,1587234163,100,-25.3,152.85,71.01,3.38
Matias Barbosa,99,BR,1587234163,70,-21.87,-43.32,73.99,5.01
Ngunguru,62,NZ,1587234164,98,-35.62,174.5,59.0,11.79
Ixtapa,75,MX,1587234164,65,20.7,-105.2,78.8,12.75
Zhigansk,30,RU,1587234164,93,66.77,123.37,2.62,12.91
Yeppoon,40,AU,1587234164,88,-23.13,150.73,71.6,5.91
Bull Savanna,7,JM,1587234164,53,17.89,-77.59,85.15,11.27
Hukuntsi,36,BW,1587234164,32,-24.0,21.75,75.47,3.74
Toamasina,40,MG,1587234164,94,-18.17,49.38,73.4,11.41
Dicabisagan,75,PH,1587234164,84,17.08,122.42,78.28,5.1
Berlevåg,75,NO,1587234164,86,70.86,29.09,33.8,11.41
Provideniya,100,RU,1587234164,95,64.38,-173.3,21.16,16.24
Itaituba,40,BR,1587234164,62,-4.28,-55.98,89.6,2.24
Atambua,49,ID,1587234165,78,-9.11,124.89,72.86,3.89
Tūkrah,0,LY,1587234165,71,32.53,20.58,59.77,10.92
Richards Bay,34,ZA,1587234165,79,-28.78,32.04,72.5,12.01
Mount Gambier,40,AU,1587234165,93,-37.83,140.77,42.8,6.93
Asău,52,RO,1587234165,38,46.43,26.4,59.0,6.93
Sovetskiy,99,RU,1587233945,90,61.36,63.58,38.17,7.4
Maniitsoq,100,GL,1587234165,92,65.42,-52.9,26.26,15.41
Porto-Novo,40,BJ,1587234165,79,6.5,2.6,86.0,12.75
Grindavik,90,IS,1587234165,100,63.84,-22.43,37.4,11.41
Blagoyevo,84,RU,1587234065,93,63.37,47.92,34.12,1.97
Omboué,92,GA,1587234165,86,-1.57,9.26,80.49,6.67
Skibbereen,75,IE,1587234166,100,51.55,-9.27,48.2,13.87
Luganville,76,VU,1587234166,82,-15.53,167.17,77.7,3.02
Torbay,75,CA,1587234166,55,47.67,-52.73,41.0,11.41
Karcsa,36,HU,1587234166,26,48.31,21.81,59.0,8.05
Lavrentiya,100,RU,1587234166,96,65.58,-171.0,17.69,13.2
Beipiao,100,CN,1587234166,38,41.79,120.78,55.78,5.7
Zulte,34,BE,1587234166,77,50.92,3.45,52.0,5.01
Oranjemund,1,NA,1587233965,83,-28.55,16.43,59.83,3.09
Faanui,60,PF,1587234166,70,-16.48,-151.75,82.76,8.72
Ambon City,84,ID,1587234166,72,-3.7,128.18,83.12,3.02
Ballina,75,AU,1587234166,93,-28.87,153.57,63.0,6.93
Lagos,40,NG,1587234044,79,6.58,3.75,86.0,8.05
Coro,76,VE,1587234166,56,11.4,-69.67,86.14,22.44
Katsuura,4,JP,1587234167,70,35.13,140.3,57.99,5.99
Los Chiles,2,CR,1587234167,37,11.03,-84.72,93.0,7.74
Laguna,90,US,1587234167,59,38.42,-121.42,63.0,9.17
Jacqueville,20,CI,1587234167,83,5.21,-4.41,84.2,9.17
Pedro II,77,BR,1587234167,72,-4.42,-41.46,79.07,1.1
Asmara,86,ER,1587234167,39,15.33,38.93,61.34,3.04
Beira,40,MZ,1587234167,74,-19.84,34.84,80.6,14.99
Mizdah,44,LY,1587234167,15,31.45,12.98,77.04,10.69
Ibiá,92,BR,1587234167,61,-19.48,-46.54,78.8,3.36
Praia da Vitória,75,PT,1587234167,88,38.73,-27.07,64.4,18.14
Manjeshwar,20,IN,1587234167,70,12.72,74.89,84.2,3.36
Lewisporte,75,CA,1587234167,34,49.25,-55.05,35.6,13.87
Kitob,44,UZ,1587234167,45,39.08,66.83,59.45,4.54
Morondava,0,MG,1587234167,77,-20.28,44.28,79.32,10.45
Allāpalli,1,IN,1587234168,29,19.42,80.07,87.51,2.95
Māngrol,0,IN,1587234168,63,21.12,70.12,81.91,13.35
Nemuro,97,JP,1587234168,83,43.32,145.57,40.48,9.6
Tsogni,69,GA,1587234168,83,-2.79,10.1,79.29,8.5
Tautira,40,PF,1587233875,66,-17.73,-149.15,84.2,3.36
Saint-François,98,FR,1587234168,52,46.42,3.91,68.0,2.08
Les Cayes,28,HT,1587234168,72,18.2,-73.75,81.72,8.84
Kahului,20,US,1587234168,60,20.89,-156.47,75.2,3.36
La Baule-Escoublac,8,FR,1587234168,67,47.29,-2.36,66.99,6.93
Mitsamiouli,96,KM,1587234168,76,-11.38,43.28,83.23,11.45
Camopi,62,GF,1587234168,59,3.17,-52.32,88.52,2.73
Sturgeon Falls,75,CA,1587234169,45,46.36,-79.93,48.99,21.92
Antalaha,92,MG,1587234169,82,-14.9,50.28,76.64,9.33
Maceió,75,BR,1587234169,83,-9.67,-35.74,82.4,10.29
Pathein,8,MM,1587233926,83,16.78,94.73,75.76,7.54
Yulara,0,AU,1587233882,37,-25.24,130.99,69.8,5.82
Hailar,100,CN,1587234169,52,49.2,119.7,47.12,11.23
Kiryat Gat,2,IL,1587233941,14,31.61,34.76,68.0,9.62
Härnösand,22,SE,1587234169,52,62.63,17.94,48.0,13.87
Lubango,92,AO,1587234169,51,-14.92,13.49,61.74,3.74
Chenzhou,100,CN,1587234169,86,25.8,113.03,67.78,1.97
Farafangana,15,MG,1587234169,82,-22.82,47.83,75.52,9.08
Verkhoyansk,80,RU,1587234170,84,67.54,133.38,-10.08,2.46
Hluti,66,SZ,1587234170,73,-27.22,31.62,77.0,2.24
St. Pete Beach,40,US,1587234170,88,27.73,-82.74,75.99,4.7
Karratha,80,AU,1587234170,64,-20.74,116.85,82.6,10.76
Usol'ye,100,RU,1587234170,96,59.43,56.68,34.0,3.0
Poum,81,NC,1587234170,77,-20.23,164.02,78.17,14.76
Tiznit Province,24,MA,1587234170,59,29.58,-9.5,60.84,11.25
Lakes Entrance,100,AU,1587234170,83,-37.88,147.98,53.01,1.01
Krabi,75,TH,1587234170,100,8.07,98.91,81.0,2.24
Port-Gentil,40,GA,1587234170,79,-0.72,8.78,86.0,10.29
Ranot,95,TH,1587234170,79,7.78,100.32,82.18,6.33
Kabo,68,CF,1587234171,31,7.7,18.63,90.61,6.38
Kushmurun,99,KZ,1587234171,62,52.45,64.63,53.44,7.72
Jorochito,7,BO,1587234171,28,-18.05,-63.43,86.0,13.87
Saint-Augustin,33,CA,1587234171,88,51.23,-58.65,29.7,17.52
Guaraniaçu,67,BR,1587234171,37,-25.1,-52.88,74.97,2.3
Lamlash,3,GB,1587234171,58,55.53,-5.13,53.6,12.75
Huaiyuan,100,CN,1587234171,94,32.97,117.2,51.93,9.57
Aksu,92,CN,1587234171,37,41.12,80.26,58.41,3.98
Río Cuarto,0,AR,1587233920,32,-33.13,-64.35,82.4,31.09
Aykhal,13,RU,1587234171,43,66.0,111.5,10.4,4.47
Nizwá,0,OM,1587233878,15,22.93,57.53,84.2,3.56
Turukhansk,100,RU,1587234171,79,65.82,87.98,38.32,15.23
Kourou,75,GF,1587234172,70,5.16,-52.65,86.0,8.05
Östersund,21,SE,1587234168,75,63.18,14.64,39.99,16.11
Lata,68,PT,1587233878,80,40.16,-8.33,66.0,5.01
Mucurapo,40,TT,1587234172,43,10.67,-61.53,91.0,12.75
São João da Barra,75,BR,1587234172,65,-21.64,-41.05,78.8,13.87
Padang,100,ID,1587234172,77,-0.95,100.35,78.89,0.98
Poya,93,NC,1587234172,82,-21.35,165.15,74.03,6.06
Mandalgovi,84,MN,1587234172,45,45.76,106.27,34.7,27.51
Burnie,31,AU,1587234172,91,-41.07,145.92,55.99,3.0
Los Llanos de Aridane,20,ES,1587234172,60,28.66,-17.92,68.0,17.22
Cap Malheureux,40,MU,1587234172,74,-19.98,57.61,79.0,16.11
Ejido,72,VE,1587234172,48,8.55,-71.24,73.38,1.54
Horasan,99,TR,1587234173,32,40.05,42.17,51.06,3.51
Borogontsy,25,RU,1587234173,88,62.67,131.17,0.39,3.27
Port Hardy,90,CA,1587234173,87,50.7,-127.42,48.2,8.05
Port Blair,8,IN,1587234173,74,11.67,92.75,83.97,6.67
Cairns,90,AU,1587233947,100,-16.92,145.77,75.2,2.28
Kumul,95,CN,1587234173,20,42.8,93.45,65.14,17.05
Urucará,50,BR,1587234173,67,-2.54,-57.76,87.69,4.43
Kungurtug,0,RU,1587234173,54,50.6,97.52,29.14,2.55
Caravelas,98,BR,1587233931,78,-17.71,-39.25,77.49,21.54
Xinqing,43,CN,1587234173,47,48.23,129.5,45.52,5.06
Karpathos,0,GR,1587234173,77,35.51,27.21,59.0,6.93
Cuxhaven,20,DE,1587234174,26,53.87,8.69,57.2,12.75
Novooleksiyivka,83,UA,1587234174,59,46.23,34.64,50.94,3.11
Puerto Suárez,0,BO,1587234174,40,-18.95,-57.8,87.8,5.82
Vao,26,NC,1587234174,69,-22.67,167.48,75.09,11.03
Zambezi,83,ZM,1587234174,48,-13.54,23.1,72.59,6.26
Lüshunkou,100,CN,1587234174,66,38.8,121.27,53.6,2.24
Tegul'det,50,RU,1587234174,79,57.31,88.17,39.43,8.5
Joshīmath,87,IN,1587234174,24,30.57,79.57,49.41,4.25
Tacuarembó,0,UY,1587234174,36,-31.73,-55.98,76.75,8.79
Patti,40,IN,1587234174,77,31.28,74.86,73.4,2.21
Kieta,100,PG,1587234174,78,-6.22,155.63,79.47,2.48
Sibu,75,MY,1587234174,94,2.3,111.82,77.0,2.24
Half Moon Bay,90,US,1587234174,67,37.46,-122.43,60.01,8.05
Nsanje,26,MW,1587234175,88,-16.92,35.26,73.04,5.08
Insar,49,RU,1587234175,72,53.87,44.37,38.16,8.01
Arki,80,IN,1587234175,50,31.15,76.97,60.17,8.72
Klaksvík,0,FO,1587234175,75,62.23,-6.59,44.6,11.41
Bitung,40,ID,1587234175,94,1.45,125.18,77.0,4.61
Finschhafen,82,PG,1587234175,71,-6.6,147.87,82.18,2.19
Tuy Hoa,95,VN,1587234175,86,13.08,109.3,76.71,3.69
Khorixas,6,NA,1587234175,21,-20.37,14.97,83.16,6.11
Grand Gaube,40,MU,1587234175,74,-20.01,57.66,79.0,16.11
Broome,90,US,1587234176,69,42.25,-75.83,42.01,12.75
Havelock,75,US,1587234176,68,34.88,-76.9,68.0,18.34
Tymovskoye,99,RU,1587234176,95,50.85,142.66,28.06,3.49
Brake (Unterweser),15,DE,1587234176,67,53.33,8.48,60.01,11.99
Kochki,31,RU,1587234176,80,54.34,80.48,41.99,7.25
Buguruslan,96,RU,1587234176,69,53.66,52.44,40.1,7.99
Hongjiang,90,CN,1587234176,86,27.11,110.0,60.85,3.58
Itarema,30,BR,1587234176,72,-2.92,-39.92,84.38,7.09
Falmouth,18,GB,1587233884,100,50.15,-5.07,52.0,13.87
Cabedelo,40,BR,1587234176,70,-6.98,-34.83,86.0,10.29
Roquetas de Mar,90,ES,1587234176,88,36.76,-2.61,64.4,3.36
Twinsburg,75,US,1587233923,45,41.31,-81.44,48.0,11.41
Ossora,0,RU,1587234177,88,59.24,163.07,13.28,7.58
Ningxiang,99,CN,1587234177,56,37.34,111.21,41.5,3.44
Southbridge,100,US,1587234177,90,42.08,-72.03,37.0,1.01
Lagan,78,RU,1587234064,59,45.39,47.37,56.17,8.88
Sugod,36,PH,1587234177,83,12.99,124.08,79.81,9.86
Shebalino,3,RU,1587234177,52,51.29,85.68,38.26,2.33
Souillac,40,MU,1587234177,74,-20.52,57.52,79.0,16.11
Saint Anthony,75,US,1587234177,36,45.02,-93.22,61.0,16.11
Buraidah,50,SA,1587234177,54,26.33,43.98,78.8,19.46
Barra dos Coqueiros,75,BR,1587234177,94,-10.91,-37.04,77.0,4.7
Belle Fourche,39,US,1587233955,51,44.67,-103.85,49.62,14.14
Kudahuvadhoo,74,MV,1587234178,78,2.67,72.89,84.69,12.24
Rolla,1,US,1587234029,35,37.95,-91.77,59.0,8.05
Emilio Carranza,50,MX,1587234178,73,19.97,-96.61,83.28,6.33
New Glasgow,63,CA,1587233955,74,45.58,-62.65,41.0,15.99
Esim,42,GH,1587234178,78,4.87,-2.24,83.48,10.18
Kismayo,100,SO,1587234178,77,-0.36,42.55,84.13,10.83
Dehui,75,CN,1587234178,37,44.53,125.7,50.0,6.71
Maxixe,20,MZ,1587234178,69,-23.86,35.35,78.8,13.78
Bosaso,87,SO,1587234178,71,11.28,49.18,84.49,8.08
Graham,90,US,1587233918,87,47.05,-122.29,52.0,4.7
Yelizovo,0,RU,1587234178,87,53.19,158.38,32.0,8.95
Coquimbo,90,CL,1587234179,82,-29.95,-71.34,60.8,9.17
Coffs Harbour,75,AU,1587234179,93,-30.3,153.13,60.8,2.82
Enid,1,US,1587234069,41,36.4,-97.88,60.8,17.22
Cidreira,3,BR,1587234179,65,-30.18,-50.21,71.73,10.78
Muskogee,1,US,1587234179,41,35.58,-95.33,60.01,9.17
Rājgarh,62,IN,1587233924,26,28.63,75.38,85.95,11.79
Kuroiso,100,JP,1587234179,88,36.97,140.05,52.0,7.0
Ramos Arizpe,75,MX,1587234179,44,25.55,-100.97,80.6,8.05
Coyhaique,90,CL,1587234179,76,-45.58,-72.07,51.8,4.7
Tornio,90,FI,1587234179,69,65.85,24.15,37.4,11.41
Fare,86,PF,1587234179,70,-16.7,-151.02,83.53,6.04
Mehamn,99,NO,1587234180,85,71.04,27.85,35.33,13.09
Sioux Lookout,90,CA,1587234180,74,50.1,-91.92,41.0,14.99
Placerville,38,US,1587234180,79,38.73,-120.8,55.99,5.28
Massaranduba,75,BR,1587234180,52,-7.2,-35.79,87.8,4.7
Pangnirtung,40,CA,1587234180,77,66.15,-65.71,3.2,5.82
Thunder Bay,90,CA,1587234059,46,48.4,-89.32,53.6,24.16
Victor Harbor,81,AU,1587234180,99,-35.57,138.62,54.0,1.57
Cavalcante,94,BR,1587234180,56,-13.8,-47.46,78.84,3.15
Garoowe,49,SO,1587234180,56,8.41,48.48,81.55,16.53
Husavik,90,IS,1587234180,57,66.04,-17.34,50.0,49.44
North Bend,90,US,1587234180,76,43.41,-124.22,60.01,6.93
Kheri,56,IN,1587234181,26,27.9,80.8,81.79,5.48
Pevek,0,RU,1587234181,89,69.7,170.31,-4.92,7.09
Madang,97,PG,1587234181,83,-5.22,145.8,78.28,5.37
Stornoway,0,GB,1587234181,66,58.21,-6.39,53.01,6.93
Bamiantong,0,CN,1587234181,65,44.93,130.53,44.26,3.58
Mahon,75,ES,1587234181,88,39.89,4.27,64.4,10.29
Kloulklubed,75,PW,1587234181,88,7.04,134.26,80.6,9.17
Saint Paul,40,US,1587233910,38,44.94,-93.09,60.8,14.99
Bogashevo,35,RU,1587234181,45,56.37,85.14,48.0,6.71
Iqaluit,20,CA,1587234181,65,63.75,-68.51,6.8,3.36
Baracoa,11,CU,1587234181,77,20.35,-74.5,79.99,13.44
Dambulla,73,LK,1587234182,84,7.86,80.65,76.33,3.47
Ulladulla,100,AU,1587234182,100,-35.35,150.47,53.01,5.82
Çubuk,20,TR,1587233883,41,40.24,33.03,59.0,5.82
Lively,27,CA,1587234182,43,46.43,-81.15,46.99,18.01
Nāgar Karnūl,22,IN,1587234182,30,16.48,78.32,84.65,7.14
Inírida,87,CO,1587234182,83,3.87,-67.92,82.71,3.71
Omsukchan,100,RU,1587234182,84,62.53,155.8,-0.09,6.29
Santa Catarina Palopó,20,GT,1587234182,39,14.72,-91.13,95.0,4.7
Portland,98,US,1587233970,85,45.52,-122.68,51.01,1.01
Henties Bay,18,NA,1587234182,93,-22.12,14.28,57.0,5.99
Yatou,100,CN,1587234182,78,37.15,122.38,49.35,3.65
Bara,65,NG,1587234182,9,10.37,10.73,92.21,2.04
Taitung City,81,TW,1587234183,67,22.76,121.14,76.77,4.41
Tabuk,90,PH,1587234183,82,17.42,121.44,74.82,3.74
Don Luan,100,VN,1587234183,91,11.53,106.92,76.19,2.71
Troitskoye,0,RU,1587234183,68,52.98,84.68,43.34,6.8
Krasnosel'kup,100,RU,1587234183,78,65.7,82.47,37.92,22.77
Ternate,58,ID,1587234183,80,0.8,127.4,80.15,3.29
Haapiti,98,PF,1587234183,70,-17.57,-149.87,84.2,3.36
Uberaba,40,BR,1587234183,51,-19.75,-47.93,82.4,2.24
Bubaque,100,GW,1587233919,75,11.28,-15.83,77.23,21.7
Sørland,98,NO,1587234183,91,67.67,12.69,40.51,7.85
Road Town,40,VG,1587234183,70,18.42,-64.62,84.2,10.29
Lieksa,98,FI,1587234184,86,63.32,30.02,33.66,9.53
Ekhabi,20,RU,1587234184,90,53.51,142.97,16.77,6.35
Bellaire,90,US,1587234037,69,29.71,-95.46,73.99,10.29
Marsabit,100,KE,1587234184,59,2.33,37.99,71.55,11.34
